,city,country,lat,lng,date,max_temp,humidity,cloudiness,windspeed
0,hay river,ca,64.60640223166311,-119.47535741921736,1552784400,42.8,38.0,20.0,10.29
1,chokurdakh,ru,80.89850381099599,147.73775261445138,1552787372,-7.52,92.0,64.0,4.92
2,port blair,in,10.776745177409763,94.43790659429949,1552787747,83.03,98.0,0.0,9.62
3,kiama,au,-35.546578808395985,151.97085424653525,1552787734,66.99,100.0,90.0,14.99
4,valdivia,cl,-39.74191000590505,-75.99823556401155,1552784400,53.6,81.0,0.0,3.36
5,kaitangata,nz,-51.85934780034649,171.3810704435558,1552787733,61.0,79.0,12.0,8.99
6,souillac,mu,-38.4921243317176,65.93762734311504,1552787732,51.8,76.0,90.0,12.75
7,mataura,pf,-71.44588634122714,-145.58348156275014,1552787406,64.0,73.0,24.0,2.13
8,port-gentil,ga,-1.7668188531314968,6.601915582424767,1552787755,79.56,100.0,68.0,4.47
9,upernavik,gl,77.84298700078,-54.463850920419006,1552787757,-11.61,100.0,32.0,13.76
10,hit,iq,32.89370872969201,41.640214705565455,1552787758,48.87,94.0,92.0,14.09
11,hermanus,za,-59.30454382823511,14.932216780970435,1552787290,64.99,98.0,32.0,2.8
12,pandan,ph,16.868729305068115,126.40942015891943,1552787760,81.23,95.0,12.0,19.24
13,leningradskiy,ru,89.59825233808289,176.59752540106913,1552787761,-6.57,88.0,64.0,21.59
14,puerto ayora,ec,0.05807861902583511,-102.04335111449528,1552787184,75.99,90.0,8.0,3.0
15,san luis,ar,-31.37332389549426,-66.56066554098491,1552787764,58.95,93.0,80.0,6.6
16,muros,es,43.34568022145962,-17.150077285640034,1552787735,55.0,87.0,90.0,10.29
17,yellowknife,ca,66.44767304825328,-114.13136467539158,1552787143,25.0,67.0,20.0,11.41
18,bambous virieux,mu,-29.13181020382561,76.06413594531274,1552784400,77.0,83.0,75.0,6.93
19,ofaqim,il,31.137564315866186,34.302891753471926,1552787586,55.0,35.0,100.0,9.4
20,busselton,au,-61.378659635979936,79.31781403827205,1552787154,75.99,40.0,76.0,19.69
21,shenjiamen,cn,30.48444530919353,124.70955464921582,1552787772,56.16,89.0,0.0,2.68
22,suntar,ru,63.041953863393466,116.84695903268994,1552787773,15.93,56.0,56.0,9.51
23,broken hill,au,-26.70622721157257,141.47926562954774,1552784400,80.6,30.0,0.0,10.29
24,hobart,au,-55.8586107609092,145.83665300290923,1552787244,72.0,49.0,20.0,6.93
25,ushuaia,ar,-86.04523281235856,-79.86473952730142,1552784400,46.4,93.0,20.0,2.24
26,severo-kurilsk,ru,41.53754861600541,163.02132283167802,1552787779,28.62,100.0,36.0,2.35
27,hilo,us,15.998201569621287,-153.3433447303974,1552787360,79.0,65.0,90.0,9.17
28,hithadhoo,mv,-8.254500424082124,77.34597929700135,1552787782,80.51,100.0,76.0,0.34
29,sitka,us,46.91557319376577,-140.23285873875318,1552787205,53.01,31.0,0.0,1.01
30,vaini,to,-85.94304593500807,-172.9137406646555,1552784400,64.4,77.0,0.0,4.36
31,saint-philippe,re,-54.69193137195238,66.94310224582307,1552787774,30.2,50.0,90.0,13.87
32,tuktoyaktuk,ca,75.57790521270232,-129.87650342871493,1552784400,5.0,84.0,40.0,16.11
33,half moon bay,us,30.356287707581004,-135.3773162899683,1552787494,68.0,62.0,1.0,9.17
34,kapaa,us,40.19252975830531,-165.11638967906268,1552787600,78.8,65.0,75.0,12.75
35,mar del plata,ar,-66.10945620463279,-30.93554197093934,1552787792,69.57,43.0,32.0,12.64
36,gat,ly,26.939734242249244,10.232811368555275,1552786200,68.0,82.0,0.0,11.41
37,petropavlovka,ru,51.00296791634611,105.3274481755684,1552787794,49.19,34.0,0.0,4.03
38,erenhot,cn,43.78644428653769,114.68508173577379,1552787795,49.68,26.0,0.0,14.54
39,bredasdorp,za,-78.96983522305014,23.509671667604774,1552787168,69.8,88.0,44.0,4.7
40,chabua,in,27.582131594717964,95.16360267963897,1552784400,66.2,82.0,90.0,2.24
41,traralgon,au,-38.11395938665167,146.62226367408664,1552787118,82.0,56.0,56.0,5.01
42,kloulklubed,pw,5.216452932491805,132.63562376918054,1552783800,77.0,94.0,90.0,3.36
43,longyearbyen,sj,83.69799207348173,22.104969645103377,1552783800,-2.21,53.0,20.0,10.29
44,port elizabeth,za,-83.83131959824496,33.52631665248168,1552787803,44.6,38.0,1.0,17.22
45,ostrovnoy,ru,72.61798619128388,43.30066251235175,1552787805,26.82,86.0,48.0,13.2
46,mogwase,za,-25.094309927406144,26.92567148260872,1552787806,59.13,85.0,0.0,3.58
47,salalah,om,19.04894315302488,55.54338343633648,1552783800,77.0,73.0,40.0,2.24
48,bethel,us,46.31732686952506,-169.44161190016112,1552787640,26.6,85.0,90.0,17.22
49,leshukonskoye,ru,66.3621851805554,46.200828573484564,1552787810,20.79,88.0,56.0,5.26
50,rio de janeiro,br,-23.94266958045631,-43.34031059800151,1552788000,82.4,94.0,75.0,2.24
51,segovia,es,40.97365790809196,-4.489417102495821,1552787731,57.99,52.0,0.0,3.36
52,rikitea,pf,-46.631884281302426,-114.55496577672459,1552787356,77.76,100.0,80.0,24.72
53,chicama,pe,-12.786772620897693,-88.49648638201981,1552784400,73.4,78.0,75.0,11.41
54,fortuna,us,32.516231007868186,-140.61537397665543,1552787788,55.99,61.0,0.0,5.82
55,punta arenas,cl,-74.92752133343781,-97.45507686970913,1552787586,50.0,100.0,90.0,3.36
56,qingquan,cn,30.743086897749706,115.16075645428936,1552787774,77.0,82.0,75.0,2.24
57,east london,za,-63.10705442876225,46.68506333553368,1552787749,76.32,97.0,8.0,19.91
58,arraial do cabo,br,-30.675792035686573,-37.349358654698364,1552787310,77.76,100.0,92.0,3.91
59,luderitz,na,-35.6891450377496,-0.9986233574107076,1552787822,59.85,92.0,12.0,9.62
60,castro,cl,-46.43773806665116,-97.87375056659279,1552784400,53.6,87.0,44.0,2.24
61,dikson,ru,85.00821717311251,70.6072915965363,1552787402,8.78,93.0,76.0,25.28
62,takanabe,jp,32.19030681723905,131.9539085242429,1552784400,62.6,48.0,20.0,17.22
63,khatanga,ru,86.57713467047111,102.64667092601995,1552787827,-8.78,82.0,44.0,3.47
64,konstantinovka,ru,49.08894151531908,128.31260788935705,1552787113,37.0,75.0,20.0,1.01
65,provideniya,ru,60.727862490357246,-175.60448259101952,1552787829,18.23,100.0,0.0,9.62
66,jamestown,sh,-50.03974481136277,-16.524869439908485,1552787256,76.28,85.0,0.0,5.93
67,puerto escondido,mx,9.565814066307752,-100.31847583449591,1552783260,82.4,69.0,20.0,13.98
68,port hedland,au,-21.57735515901105,121.51252647370859,1552784400,89.6,70.0,40.0,12.75
69,pevek,ru,87.87766042198822,168.08714698957044,1552787834,-13.82,83.0,8.0,16.33
70,mabaruma,gy,9.41566806369032,-57.50377173324225,1552787835,77.58,87.0,88.0,6.6
71,vanimo,pg,-3.9886583766573978,139.64489771308442,1552787836,81.81,100.0,48.0,10.07
72,ketchikan,us,53.34107953083091,-133.05745714422255,1552786800,46.4,93.0,90.0,8.05
73,albany,au,-88.18360338992937,118.9516070518962,1552787344,33.8,55.0,20.0,16.11
74,padang,id,-7.7997825545254775,92.47682796400568,1552784400,80.6,83.0,20.0,2.24
75,jizan,sa,17.142796885070837,41.000902691754334,1552784400,80.6,78.0,20.0,3.36
76,saint-pierre,pm,44.15041757957033,-56.962824080257704,1552787825,50.0,81.0,75.0,23.04
77,bluff,nz,-88.86927008067853,162.12803402163215,1552787730,74.03,100.0,68.0,5.7
78,pisco,pe,-22.069618727810226,-94.66960031831205,1552784400,71.6,78.0,0.0,18.34
79,georgetown,sh,-7.0337447219272775,-22.57562918757625,1552784400,77.0,94.0,0.0,6.93
80,torbay,ca,44.29853618018632,-48.92854540994267,1552787306,45.0,100.0,90.0,25.28
81,belmonte,br,-15.844647509703591,-33.12836978179263,1552787200,45.0,90.0,0.0,5.01
82,barrow,us,78.63292480165447,-167.2389146491183,1552787854,65.43,94.0,12.0,8.61
83,novobirilyussy,ru,57.48980022055929,90.86713047862145,1552787855,22.05,82.0,20.0,8.28
84,atuona,pf,-2.9479310265658256,-131.72278992270108,1552787856,82.31,100.0,0.0,12.3
85,fort saint james,ca,55.481899524181564,-124.83499499618338,1552787857,32.09,84.0,8.0,2.91
86,rawson,ar,-51.334327611696395,-55.19378904994645,1552787859,63.09,95.0,48.0,13.76
87,yanji,cn,42.09568159388167,129.82585271270085,1552787860,42.12,35.0,8.0,4.14
88,kosa,ru,60.44537228305197,54.872492832162685,1552787861,19.35,80.0,68.0,7.61
89,sikeston,us,36.61504771804504,-89.63380113609259,1552787700,48.99,56.0,1.0,3.47
90,lebu,cl,-38.275611959997285,-97.94601768728113,1552784400,60.8,51.0,0.0,9.17
91,naze,jp,20.403809467265944,138.79976324842622,1552787865,74.93,93.0,32.0,4.92
92,phan thiet,vn,10.619025870136014,107.8903395647372,1552787717,84.83,77.0,0.0,12.64
93,thunder bay,ca,50.257275434375934,-89.14778531111027,1552787590,26.01,53.0,40.0,3.36
94,namatanai,pg,-2.1227897980039927,152.69865298017055,1552787868,82.62,100.0,56.0,9.62
95,namibe,ao,-15.298374931132546,5.000061043944072,1552787869,77.94,100.0,8.0,2.57
96,carnarvon,au,-32.515787374985315,85.11632520202602,1552787871,55.94,89.0,0.0,3.02
97,kutum,sd,17.05162607940244,25.57264681962357,1552787872,56.03,19.0,0.0,11.41
98,kaseda,jp,30.26025831453356,129.86267714749096,1552787585,60.8,41.0,20.0,17.22
99,kodiak,us,42.454100621981524,-151.1671553121922,1552787761,46.0,30.0,1.0,10.29
100,avera,pf,-22.437797980998926,-152.9789237341952,1552787829,53.6,75.0,1.0,3.36
101,thinadhoo,mv,0.6198982438636733,70.21320777830596,1552787877,81.81,100.0,56.0,5.37
102,new norfolk,au,-84.11912810880253,122.25654931653885,1552787840,72.0,49.0,20.0,6.93
103,saskylakh,ru,89.62675986077706,115.08038522030644,1552787879,-5.94,71.0,48.0,5.7
104,kavieng,pg,-3.712502196357022,150.01403042082643,1552787880,85.64,98.0,12.0,8.5
105,nemuro,jp,35.564316006618846,150.85682858144406,1552784400,35.6,64.0,75.0,3.36
106,tanda,ci,7.743545742674854,-3.4557022534894197,1552787883,62.64,61.0,64.0,4.36
107,cape town,za,-57.83304214852651,-11.163309929636457,1552787291,64.99,100.0,75.0,5.82
108,auki,sb,-7.599981939486683,161.72359671510475,1552787885,73.62,26.0,0.0,10.18
109,bell ville,ar,-33.23715662124451,-63.14442417898482,1552787886,67.19,85.0,80.0,8.28
110,pundaguitan,ph,5.375409114108494,126.5450417554112,1552787887,82.53,93.0,8.0,4.14
111,san patricio,mx,3.757938551768561,-118.04407235771791,1552787343,70.74,95.0,88.0,4.81
112,codrington,ag,23.43619108601649,-46.854219529061176,1552787635,77.0,73.0,75.0,3.47
113,kuala terengganu,my,5.40538586314355,103.1658607952383,1552784400,78.8,83.0,75.0,2.24
114,moerai,pf,-22.854474360744266,-150.69094335967253,1552787892,79.47,100.0,68.0,25.28
115,sao raimundo das mangabeiras,br,-6.788135458687678,-45.73485735313994,1552787893,71.37,92.0,12.0,3.36
116,ugoofaaru,mv,5.294814836674816,61.9625765751845,1552787894,84.06,98.0,8.0,13.76
117,mahebourg,mu,-35.754081639977926,67.74364274994028,1552784400,77.0,83.0,75.0,6.93
118,rakoshyno,ua,48.56864842277958,22.483820554928347,1552787661,44.01,79.0,92.0,4.0
119,salinas,mx,22.568830146879613,-101.75326912404115,1552787891,66.2,52.0,1.0,8.05
120,tiarei,pf,-11.604889690349607,-146.7518716442815,1552787582,82.4,83.0,75.0,9.17
121,raudeberg,no,68.86224365717348,0.749490829094924,1552787701,41.0,60.0,68.0,8.05
122,estacion coahuila,mx,32.09799252173144,-114.96529841605609,1552784340,80.6,15.0,1.0,5.82
123,ontario,us,43.264694025838565,-117.80218717016452,1552787888,79.0,15.0,1.0,8.05
124,spearfish,us,44.379426949342566,-104.36240552766823,1552787708,33.01,68.0,1.0,4.7
125,dunedin,nz,-54.596280253856,175.80075093013664,1552787464,62.01,78.0,12.0,8.01
126,havre-saint-pierre,ca,55.74705248592017,-64.92294316565152,1552786020,26.6,92.0,90.0,32.21
127,palmer,us,61.62588031395121,-146.236413596483,1552787850,90.0,53.0,0.0,10.29
128,cidreira,br,-47.6206776584665,-28.640806627367372,1552787324,73.44,81.0,92.0,13.31
129,saldanha,za,-34.267796616350715,8.271898432247184,1552787350,33.48,65.0,0.0,5.03
130,cherskiy,ru,84.94001622309806,157.31080684690968,1552787329,-13.55,41.0,8.0,2.91
131,harper,lr,-3.794798380826464,-6.683966490097162,1552787894,55.4,32.0,90.0,5.82
132,adre,td,14.962163808759326,22.84818429907054,1552787917,67.01,18.0,0.0,15.77
133,pontianak,id,-0.8790052375348836,108.35390985396481,1552786200,80.6,78.0,20.0,4.7
134,weligama,lk,4.217368682882992,80.14817302366832,1552787781,80.55,99.0,12.0,6.15
135,cayenne,gf,17.935585764277278,-42.30356662795936,1552784400,77.0,83.0,20.0,7.72
136,pathein,mm,16.734593983019966,92.64050823638355,1552787922,86.13,66.0,0.0,8.39
137,port alfred,za,-69.11235654747267,39.48127897484639,1552787117,70.0,97.0,8.0,13.31
138,sarai mir,in,25.92135497783144,82.8533289422403,1552786200,60.8,72.0,20.0,3.36
139,viedma,ar,-47.14212237640338,-57.77075217144329,1552787775,62.91,96.0,64.0,2.91
140,mehamn,no,77.99750413132722,29.122654975453344,1552787927,26.51,83.0,56.0,17.0
141,camopi,gf,1.2723644682553328,-52.77829219678469,1552787929,74.79,84.0,0.0,3.58
142,avarua,ck,-43.1985240581532,-166.3751668191619,1552786200,75.2,100.0,92.0,26.4
143,tarnogskiy gorodok,ru,60.335860534431156,43.68162871301561,1552787932,25.83,91.0,88.0,9.95
144,bandarbeyla,so,8.49054055804956,52.87796589463648,1552787933,77.49,100.0,92.0,6.38
145,muravlenko,ru,63.45423245608479,74.08588366432815,1552787935,4.19,79.0,0.0,8.16
146,saint-joseph,re,-35.59112752735175,56.74832882152876,1552787884,57.2,87.0,90.0,1.34
147,kruisfontein,za,-44.98535973987857,24.757558912103267,1552787937,62.51,84.0,8.0,3.13
148,najran,sa,19.712401088243578,48.96593482012349,1552784400,71.6,43.0,0.0,4.36
149,sozimskiy,ru,60.70217227702611,52.787385410418345,1552787941,21.56,88.0,88.0,5.59
150,forest,ca,43.62503870445004,-82.2907440100407,1552787607,53.01,43.0,1.0,5.26
151,lima,pe,-15.398668581206794,-83.36449868833355,1552787706,73.4,78.0,0.0,12.75
152,haukipudas,fi,65.72374872104686,25.223630506827874,1552787131,33.8,95.0,88.0,8.05
153,oistins,bb,11.790463299483475,-57.426174331523136,1552784400,78.8,74.0,20.0,18.34
154,labuhan,id,-19.54702599092056,94.95914611163873,1552787947,79.2,83.0,32.0,3.13
155,airai,pw,4.174057471046183,137.68353281834806,1552787948,71.69,94.0,92.0,1.57
156,clyde river,ca,69.63253794504413,-66.41882414084199,1552786380,-23.81,74.0,75.0,9.17
157,husavik,is,72.26157764788755,-11.754659994899356,1552787740,25.0,85.0,56.0,5.01
158,ribeira grande,pt,42.80412074769055,-39.256077039729384,1552787953,62.06,94.0,80.0,6.38
159,meulaboh,id,-1.0194819076191663,89.21352005752009,1552787954,82.35,100.0,0.0,3.58
160,tura,ru,63.855929232889565,101.00081953956872,1552787704,73.17,60.0,24.0,2.8
161,grindavik,is,59.31236319078022,-24.11496653491665,1552787196,36.0,100.0,75.0,4.7
162,pangnirtung,ca,68.11649756164076,-60.45354310175816,1552787958,-15.3,44.0,0.0,4.7
163,butaritari,ki,11.133297161260115,169.46593374822712,1552787959,76.23,100.0,92.0,3.02
164,chuy,uy,-49.52528050207585,-33.28067306004098,1552787960,71.73,95.0,92.0,16.44
165,constanta,ro,44.16090523031059,29.293400737155107,1552786200,37.4,86.0,0.0,8.05
166,manono,cd,-8.259118947369544,27.0300631779331,1552787963,69.44,95.0,24.0,3.13
167,klyuchi,ru,54.954858375019,161.10355312653104,1552787965,21.74,81.0,56.0,9.95
168,north bend,us,43.303004477088564,-132.34102427151385,1552787725,53.01,87.0,1.0,16.11
169,zhaotong,cn,27.556725223409465,103.3801968571574,1552787967,44.82,86.0,92.0,3.36
170,mugur-aksy,ru,50.114298570403115,90.060657781359,1552787968,26.06,69.0,0.0,5.7
171,port hawkesbury,ca,38.07416440862244,-59.33736295255694,1552787943,39.99,76.0,20.0,13.87
172,panaba,mx,21.684016794685007,-87.84338350800785,1552787972,83.25,48.0,76.0,8.05
173,ponta do sol,cv,24.519809414702774,-26.459126360625593,1552787973,68.13,92.0,64.0,3.69
174,chapais,ca,54.33014630765429,-73.13126444187355,1552785180,8.6,71.0,90.0,8.05
175,esperance,au,-32.4040229457198,121.08600519853563,1552787706,77.0,83.0,20.0,5.82
176,katsuura,jp,25.611166141514644,147.85076007522713,1552787471,53.6,76.0,75.0,10.29
177,portland,au,-39.29789781762076,140.9319458582995,1552787419,61.0,44.0,90.0,11.41
178,flinders,au,-34.04830044753009,129.3313132833457,1552787957,68.0,100.0,90.0,14.99
179,tayu,id,-4.819449195621616,111.47468267787916,1552787755,54.0,99.0,75.0,13.87
180,qaanaaq,gl,85.9225727663782,-70.57994675241001,1552787981,-26.15,77.0,0.0,6.15
181,ponta delgada,pt,34.322509512015884,-26.89257440306264,1552787974,60.8,93.0,75.0,9.17
182,wenling,cn,27.799165128266267,122.38191733099941,1552787963,68.0,46.0,56.0,2.68
183,taboga,pa,8.555628806511564,-79.35043023865244,1552787987,72.63,95.0,8.0,1.34
184,saint-denis,re,-20.149818794808443,55.19862895136565,1552787968,50.0,66.0,75.0,19.46
185,rocha,uy,-47.479988663329976,-42.98905931319538,1552787990,69.53,95.0,88.0,10.74
186,necochea,ar,-40.35797757096398,-57.577261567265346,1552787552,66.99,96.0,76.0,3.0
187,coaraci,br,-14.657734936640663,-39.65968144757213,1552784400,82.4,74.0,0.0,4.7
188,negotin,rs,44.20971382645038,22.4111344215421,1552787995,40.01,87.0,0.0,2.8
189,kavaratti,in,10.945889123430902,69.90958831073081,1552787996,82.58,100.0,0.0,5.14
190,broome,au,-14.206720648580228,123.51802006008025,1552787956,43.0,93.0,24.0,9.17
191,zhangye,cn,40.958017355276006,101.62590996994959,1552787998,42.03,78.0,36.0,4.36
192,ingham,au,-18.816350873657754,144.8600313423217,1552787999,77.09,100.0,88.0,2.57
193,morehead,pg,-7.782547541619266,141.7012855666199,1552787217,42.8,35.0,1.0,3.36
194,shingu,jp,24.394742137997557,139.43689451238316,1552784400,57.2,54.0,40.0,11.41
195,chengde,cn,41.317257620741636,117.07250556747948,1552788009,54.36,23.0,0.0,4.03
196,la cruz,mx,23.637884643548627,-107.4412942949106,1552787603,66.0,86.0,88.0,1.01
197,aksu,cn,37.87523140385692,82.32922596030909,1552786200,17.6,85.0,0.0,11.18
198,talnakh,ru,75.32605510286287,91.1617914504718,1552788015,-6.62,73.0,36.0,2.91
199,tiksi,ru,73.82889270406001,130.0375412280875,1552788016,-17.01,49.0,8.0,4.36
200,baracoa,cu,20.95904776172088,-73.52724375557268,1552787828,76.01,100.0,0.0,13.53
201,omboue,ga,-4.012702132487277,4.7440941624391835,1552788019,83.52,100.0,88.0,1.23
202,gbely,sk,48.537516477864564,17.225217934525347,1552788013,42.01,93.0,0.0,1.12
203,bucerias,mx,20.831456708836672,-105.8584512014926,1552787714,75.2,83.0,90.0,5.82
204,kisangani,cd,-1.3028662180222312,24.71876066740592,1552788022,74.43,93.0,24.0,2.35
205,ati,td,13.013427041231283,18.46365720477664,1552788023,73.62,18.0,0.0,10.96
206,rapid valley,us,44.053409535296744,-103.11098799056559,1552788020,34.0,68.0,1.0,4.7
207,nanortalik,gl,58.58416939993225,-43.451614873754046,1552788026,25.47,100.0,92.0,20.47
208,port lincoln,au,-44.67256760394313,131.14103543358823,1552788028,73.94,77.0,0.0,12.08
209,boende,cd,-1.3659273201295292,20.558371685766584,1552788029,73.44,97.0,92.0,2.68
210,chagoda,ru,59.7516852844051,35.725328779520076,1552788031,27.68,96.0,80.0,7.38
211,tynset,no,62.4959642386024,10.471180769409584,1552787400,19.4,92.0,64.0,8.05
212,narsaq,gl,74.88329794126645,-62.86171594563052,1552783800,35.6,47.0,92.0,18.34
213,aleksandrov gay,ru,48.891397559246165,49.63395463518721,1552788034,31.68,94.0,80.0,9.73
214,hasaki,jp,31.147834005680128,149.7861111879808,1552787375,55.0,34.0,20.0,5.82
215,juegang,cn,32.6900479516482,120.95913978768726,1552788034,66.0,48.0,8.0,3.0
216,tilichiki,ru,60.395096952309466,164.75468222808558,1552788038,5.63,81.0,0.0,4.14
217,mokhsogollokh,ru,61.735697770111244,128.5684317407005,1552788039,11.03,62.0,0.0,4.59
218,tuatapere,nz,-53.4698356797667,159.5224876530331,1552788008,64.0,73.0,20.0,3.91
219,garowe,so,8.083250568190978,47.85296390837613,1552788042,68.54,92.0,92.0,6.6
220,banjar,id,-13.286209035451774,106.10822972301412,1552788043,81.86,78.0,44.0,3.69
221,touros,br,-0.8315459055786079,-34.98314655139015,1552784400,78.8,94.0,75.0,12.75
222,faanui,pf,-8.420061444279469,-149.72184890882625,1552788045,84.38,100.0,64.0,8.16
223,luwuk,id,-1.6099427290612027,122.43359666816258,1552787771,87.53,73.0,24.0,2.68
224,puerto montt,cl,-41.235749219241264,-72.30838379864215,1552784400,59.0,72.0,0.0,4.7
225,charagua,bo,-19.528299319157373,-63.13664580970118,1552788049,70.47,96.0,92.0,3.69
226,aklavik,ca,68.54506133544665,-139.54242878102306,1552784400,24.8,53.0,75.0,8.05
227,victoria,sc,-5.304782244635845,49.53866079713333,1552784400,84.2,74.0,75.0,8.05
228,garissa,ke,0.2369660702008645,40.66690153189319,1552788053,75.96,79.0,0.0,7.72
229,urgut,uz,39.078463097039815,67.27910994829341,1552786200,50.0,71.0,20.0,3.36
230,poretskoye,ru,55.329343802388756,46.383046755231504,1552788057,28.35,94.0,92.0,8.95
231,norman wells,ca,68.23688897486468,-124.3426800614624,1552784400,42.8,35.0,40.0,14.99
232,poum,nc,-23.28101290165331,159.55098345547253,1552788060,23.31,77.0,0.0,1.79
233,concarneau,fr,46.29187214071126,-4.512839790049071,1552788021,46.99,87.0,75.0,10.29
234,wakkanai,jp,45.85182163026147,141.6408264332943,1552784400,35.6,74.0,20.0,8.05
235,wejherowo,pl,54.61347023568047,18.20940064079372,1552787945,41.0,93.0,90.0,10.29
236,hosakote,in,14.493627542791117,77.32570230370482,1552788065,75.83,41.0,0.0,4.47
237,semey,kz,49.804224842197186,80.4081471905243,1552786200,15.8,85.0,0.0,6.71
238,thompson,ca,75.65394269886805,-94.11730517616478,1552784400,23.0,49.0,75.0,3.36
239,zhaozhou,cn,45.88235399836242,125.337219271195,1552788068,44.33,64.0,0.0,13.87
240,jitra,my,6.204810281821409,100.41995187876114,1552784400,78.8,78.0,75.0,2.24
241,nizwa,om,19.945224174171187,57.044719184876726,1552787998,50.99,77.0,0.0,2.91
242,todos santos,mx,23.546103320886825,-109.82557054517169,1552788041,69.01,72.0,90.0,8.05
243,yulara,au,-27.792845132576836,124.79595190960026,1552784400,91.4,20.0,0.0,6.93
244,constitucion,mx,24.35988561373369,-114.62253673550829,1552788016,68.0,12.0,75.0,18.34
245,macamic,ca,48.099288373227644,-79.00765434959949,1552784400,12.2,78.0,90.0,8.05
246,tavda,ru,57.67758618802631,65.28131330630129,1552788079,10.31,67.0,0.0,6.26
247,klaksvik,fo,70.91533721662937,-1.4839487309664037,1552787400,37.4,100.0,88.0,4.7
248,bowen,au,-19.556089130817572,149.7273593427164,1552787962,89.01,70.0,75.0,6.93
249,port augusta,au,-31.774721861687325,137.40514241947187,1552787499,87.01,44.0,0.0,9.17
250,abha,sa,17.878485896412357,41.43724287660674,1552784400,59.0,82.0,0.0,10.29
251,faya,td,17.614310701404488,19.712252819879552,1552784400,59.0,82.0,0.0,10.29
252,teguise,es,30.211241369985018,-15.002349906817956,1552786200,62.6,82.0,0.0,9.17
253,tasiilaq,gl,86.9757109035234,-36.808259534661325,1552783800,15.8,78.0,88.0,2.24
254,nalut,ly,30.48448301388245,10.549099020040442,1552788089,44.55,82.0,0.0,2.8
255,saint-francois,gp,19.56515768106236,-54.79408125795054,1552788022,37.4,100.0,0.0,4.7
256,mount isa,au,-24.85998670582941,138.71109597794015,1552786200,91.4,22.0,0.0,6.93
257,cap malheureux,mu,-14.928670785959001,56.7418420835221,1552784400,77.0,83.0,75.0,6.93
258,daru,pg,-12.682255288496748,141.11658798346173,1552788095,77.76,81.0,24.0,7.38
259,chatra,in,24.315748917720484,84.61369312116125,1552788096,76.23,47.0,24.0,4.59
260,inuvik,ca,68.2641925113735,-133.8453320630123,1552784400,24.8,53.0,75.0,8.05
261,alta floresta,br,-10.972562366399572,-54.60760376410658,1552788098,75.74,94.0,0.0,2.01
262,san cristobal,ec,-11.054685671096523,-92.01191262253091,1552788016,62.6,82.0,75.0,4.7
263,poplar bluff,us,37.23785563867901,-90.49634096686688,1552788012,48.2,61.0,1.0,5.93
264,oudtshoorn,za,-33.558252527107925,21.33270348035566,1552784400,64.4,93.0,0.0,5.82
265,malinovoye ozero,ru,50.79198182550906,78.66039585226213,1552788103,22.68,85.0,64.0,6.71
266,port keats,au,-13.835141591517697,128.55116846332498,1552787843,84.83,100.0,20.0,4.36
267,pokhvistnevo,ru,53.413305144686355,52.11364098788179,1552788107,25.92,91.0,92.0,9.73
268,scottsbluff,us,42.473943618109075,-102.20593351941694,1552787891,39.2,55.0,1.0,3.36
269,deputatskiy,ru,69.20838565818372,141.23987790879357,1552788110,-5.18,77.0,56.0,3.58
270,kabakovo,ru,54.4329452864007,55.86578915621314,1552786200,24.8,79.0,90.0,2.24
271,nikolskoye,ru,53.92445577594546,174.2978992021139,1552788035,34.0,80.0,90.0,6.71
272,richards bay,za,-36.1083283072544,40.98707593738354,1552788115,71.96,87.0,56.0,8.16
273,shambu,et,9.294098246283227,37.14610722006566,1552788116,56.79,75.0,32.0,1.68
274,masterton,nz,-40.97202603408034,175.5605000256123,1552788070,73.0,64.0,0.0,1.99
275,laguna,br,-30.241306459693853,-44.71576879036158,1552783200,71.6,37.0,75.0,8.05
276,ormara,pk,24.82153631604412,64.95063123543892,1552788120,69.12,77.0,0.0,6.6
277,gull lake,ca,50.054996131047574,-108.86096400724013,1552784400,33.8,80.0,1.0,9.17
278,lompoc,us,25.85931391025248,-131.10085439865762,1552788019,69.8,51.0,1.0,6.93
279,hamilton,bm,26.442838849208247,-67.14955907848352,1552787786,30.99,73.0,75.0,10.29
280,cockburn town,tc,25.7515217564322,-66.85970992138336,1552788125,77.04,100.0,0.0,16.22
281,pochutla,mx,15.118525305238506,-96.05665481927713,1552787205,82.4,65.0,20.0,9.73
282,lorengau,pg,8.063471788396015,147.18995617432756,1552788128,81.23,100.0,68.0,8.61
283,ahipara,nz,-32.29138976287449,163.3887753817679,1552788129,77.18,64.0,68.0,5.93
284,acapulco,mx,5.758704413342414,-103.99640144775441,1552783200,80.6,83.0,75.0,8.05
285,kahului,us,34.45477209370685,-151.5245519237261,1552787868,80.6,57.0,20.0,4.7
286,bam,ir,29.49023798934418,58.228419494909325,1552788133,40.5,70.0,8.0,3.69
287,alakurtti,ru,66.8222097499924,29.85609424368488,1552787652,30.99,95.0,88.0,5.03
288,miri,my,6.635239215412128,112.77179234196348,1552788135,62.96,40.0,0.0,5.93
289,nelson bay,au,-37.77278637739311,159.64853294259927,1552788124,73.4,78.0,90.0,9.17
290,sidmouth,gb,50.61520164142024,-3.1742234810448906,1552788131,44.01,86.0,32.0,9.17
291,san-pedro,ci,3.4893123081369737,-6.154153644558675,1552788139,77.81,90.0,0.0,6.93
292,kotovo,ru,50.4349925440461,45.07542114404139,1552788140,32.67,96.0,92.0,10.18
293,follonica,it,42.374542835332534,10.650765224503177,1552788097,55.0,87.0,20.0,3.36
294,williamsburg,us,37.52287443600747,-76.69485729198352,1552788131,48.99,65.0,1.0,6.93
295,ilulissat,gl,71.00950464237005,-51.62197042433166,1552783800,-0.41,59.0,8.0,8.05
296,valleyview,ca,55.444848878917924,-117.66992386074352,1552788146,35.51,62.0,68.0,6.15
297,sistranda,no,64.43398309593744,8.33550096172911,1552787972,32.0,99.0,20.0,19.46
298,saint george,bm,29.171589533608014,-50.8592237515623,1552787605,53.01,75.0,20.0,4.03
299,ola,ru,57.58645017220018,153.58080320436017,1552788150,13.59,100.0,32.0,20.36
300,markala,ml,13.96762716766156,-6.112816378387152,1552788151,66.24,60.0,0.0,2.8
301,alofi,nu,-18.40580365285521,-165.8742844604299,1552784400,84.2,74.0,100.0,10.29
302,los llanos de aridane,es,30.94385174032961,-19.26925550482443,1552788010,64.4,68.0,0.0,9.17
303,batsfjord,no,70.87951411249055,30.018459522481923,1552788155,31.05,100.0,0.0,21.47
304,vestmannaeyjar,is,55.128913186223,-21.808127841836352,1552788156,37.8,100.0,92.0,13.76
305,chervishevo,ru,56.71508467473794,65.40775881308065,1552786200,17.6,52.0,0.0,8.95
306,bathsheba,bb,19.45355861372957,-51.688178745003064,1552784400,78.8,74.0,20.0,18.34
307,dicabisagan,ph,16.787536882793642,124.22780382756798,1552788160,73.58,100.0,92.0,4.59
308,yinchuan,cn,38.01447128922507,106.58980861213293,1552788162,46.94,31.0,76.0,4.47
309,nouadhibou,mr,20.190804442338422,-15.902393543247257,1552784400,68.0,68.0,0.0,13.87
310,mareeba,au,-17.30575047313421,144.02325596388667,1552787716,90.0,62.0,40.0,13.87
311,santa cruz,cr,7.1391125250868726,-90.96140208092551,1552788163,69.01,30.0,1.0,5.82
312,vila franca do campo,pt,39.845181625679494,-19.93478970099721,1552788155,60.8,93.0,75.0,9.17
313,port macquarie,au,-33.44962811721742,159.4840317650143,1552788004,80.01,69.0,40.0,4.7
314,college,us,73.89894106945505,-148.09505188115534,1552788009,46.4,45.0,1.0,9.17
315,santiago,pe,-15.454089609474169,-76.70203553100855,1552788000,70.0,59.0,0.0,11.41
316,bhachau,in,23.62568237489855,70.21019583090758,1552788177,66.24,32.0,0.0,9.62
317,chernyshevskiy,ru,62.85996351019216,112.23752884772159,1552788178,16.65,73.0,80.0,8.61
318,karatuzskoye,ru,53.1232917445339,93.24070516861723,1552788181,30.87,87.0,88.0,4.47
319,salinopolis,br,1.9515585882924569,-47.325918594773846,1552788183,81.0,94.0,92.0,11.18
320,linxia,cn,33.56994063071053,102.91065288948738,1552788184,33.08,71.0,88.0,3.58
321,batagay-alyta,ru,66.79186051680483,127.8521084734872,1552788185,-8.1,72.0,0.0,4.03
322,beidao,cn,34.50969605861093,104.57939384724042,1552788187,43.38,86.0,92.0,3.69
323,hirara,jp,19.993889650943814,127.19827352344156,1552784400,69.8,60.0,75.0,10.29
324,umm lajj,sa,25.1296659244792,36.62042869716518,1552788190,57.56,100.0,0.0,11.74
325,gizo,sb,-9.841385471171321,154.09847355536988,1552788073,57.2,71.0,40.0,13.87
326,novoplatnirovskaya,ru,46.14622949511647,39.350660614565136,1552788017,37.0,92.0,68.0,6.93
327,haapsalu,ee,59.07725886450632,23.478701038052662,1552788003,34.0,98.0,36.0,5.01
328,yaan,cn,31.139202463159567,100.76798501583009,1552788195,76.23,90.0,12.0,10.29
329,bermeo,es,45.00849295828011,-3.0360299321562247,1552788129,55.0,87.0,44.0,2.24
330,sept-iles,ca,54.973622173592865,-65.73821476019312,1552787611,23.0,79.0,90.0,19.46
331,iqaluit,ca,59.46038727628323,-63.62955889449962,1552784400,3.2,54.0,75.0,21.92
332,udachnyy,ru,67.98842436250615,112.12736398023878,1552788199,5.63,55.0,68.0,4.7
333,inhambane,mz,-28.77114465558345,38.179055996222786,1552788202,77.49,91.0,92.0,7.16
334,ocean city,us,37.10057105967586,-73.31389978444827,1552788138,55.0,53.0,90.0,6.93
335,tieli,cn,46.2991609138881,128.39021561932134,1552788204,40.77,57.0,0.0,10.85
336,zhanakorgan,kz,44.200021500777865,67.39454842140776,1552788205,54.14,75.0,44.0,10.74
337,nara,ml,17.95712624725536,-7.952143804334383,1552788199,50.0,81.0,75.0,10.29
338,melfi,td,11.114723097717588,17.831322162421856,1552788208,31.59,85.0,44.0,2.24
339,yeniseysk,ru,58.43250125905803,91.01248920692963,1552788209,27.41,85.0,80.0,6.6
340,aguimes,es,24.799160454058093,-15.476241387770644,1552788170,64.4,72.0,0.0,23.04
341,america dourada,br,-11.556502931833606,-41.066197137888906,1552788211,69.26,56.0,0.0,6.15
342,mount gambier,au,-39.05299215610404,140.28973805741157,1552784400,69.8,73.0,0.0,6.93
343,tala,eg,30.714766669135763,30.693799285955947,1552788017,77.0,23.0,75.0,4.7
344,yarmouth,ca,44.31670012568284,-66.70840538430372,1552788199,44.01,87.0,12.0,14.99
345,comodoro rivadavia,ar,-43.02555142648907,-68.32757078083078,1552784400,71.6,53.0,0.0,8.05
346,ewa beach,us,19.948185446421892,-158.57742166862062,1552788188,82.4,54.0,1.0,20.8
347,muisne,ec,1.271262775904802,-81.92723412913591,1552788223,71.28,97.0,8.0,3.02
348,lazaro cardenas,mx,3.917818177987442,-109.83362019034084,1552788007,60.8,31.0,20.0,10.29
349,biggar,ca,51.94578201685812,-108.39159346588032,1552788193,37.0,93.0,20.0,10.29
350,rafai,cf,6.299275329908768,24.151343455066524,1552788227,67.73,61.0,8.0,5.59
351,merrill,us,46.10681633062919,-90.40865719389808,1552788012,55.99,24.0,1.0,6.93
352,puerto del rosario,es,25.37217680187457,-11.194590499374783,1552786200,62.6,67.0,0.0,8.05
353,isabela,us,21.028281899716504,-66.91102132583495,1552788231,83.7,74.0,0.0,3.47
354,tombouctou,ml,17.953163428943682,-2.1469417559722785,1552788233,66.6,38.0,0.0,3.24
355,lakselv,no,69.49678089864625,24.35650166466857,1552788035,19.4,61.0,12.0,21.92
356,sharjah,ae,25.728373330026997,56.05171610830133,1552787654,75.2,64.0,0.0,8.05
357,jimo,cn,36.025628891211035,121.19165922390387,1552788006,71.01,40.0,0.0,2.24
358,sioux lookout,ca,54.57473493380408,-90.90341926872128,1552784400,23.0,62.0,75.0,3.36
359,guerrero negro,mx,18.12060297546377,-123.99838049840851,1552788240,57.87,66.0,12.0,7.38
360,hambantota,lk,-3.9808130020089294,85.87905468457552,1552785000,77.0,100.0,40.0,3.36
361,nakamura,jp,32.88552964505637,133.25795373035226,1552788173,55.0,52.0,75.0,11.41
362,jiangyou,cn,33.00849293017613,104.65201636087879,1552788243,55.89,77.0,76.0,3.58
363,saint anthony,ca,51.075968671560275,-56.709501881576635,1552788117,39.2,47.0,1.0,6.93
364,dingle,ie,51.220679991551116,-17.002700733269364,1552788246,83.21,67.0,48.0,14.09
365,uray,ru,59.77551130115042,64.5262417071167,1552788247,10.31,74.0,0.0,4.7
366,cartagena del chaira,co,0.7053229002492856,-73.94994866844979,1552788248,72.68,97.0,76.0,1.68
367,marawi,sd,18.252496089261285,28.776014142247053,1552788112,80.01,82.0,64.0,7.0
368,argayash,ru,55.44430332305425,60.815280047054955,1552786200,17.6,72.0,0.0,6.71
369,sechura,pe,-6.931646827411754,-81.69089210750245,1552788252,77.67,79.0,76.0,6.6
370,lala,in,24.57007626620974,92.78599496899893,1552788253,87.08,56.0,8.0,3.36
371,luzino,ru,55.0500631120193,72.9106063672863,1552786200,17.6,92.0,75.0,8.95
372,bozuyuk,tr,39.840011636748415,29.832860997704838,1552785600,48.2,66.0,75.0,5.82
373,quatre cocos,mu,-17.792693477965244,65.42237221489178,1552784400,77.0,83.0,75.0,6.93
374,katobu,id,-5.056179001297579,124.7922551301516,1552788258,84.33,91.0,64.0,2.35
375,ust-nera,ru,63.07014109377312,142.52744139644625,1552788259,-4.59,58.0,0.0,1.79
376,zharkent,kz,42.93059396277843,79.79006635985087,1552788260,28.26,50.0,0.0,2.24
377,aksarka,ru,68.11081460086473,68.1962479479975,1552788262,1.53,70.0,56.0,10.51
378,hudson bay,ca,53.21962817873393,-103.1415976907908,1552788263,29.25,82.0,0.0,5.48
379,kiunga,pg,-5.951089860676078,141.70010285721642,1552788265,83.79,75.0,44.0,3.24
380,fuerte olimpo,py,-20.043614849098066,-58.583220650369675,1552788267,74.93,96.0,36.0,2.46
381,uglezavodsk,ru,47.49303202497634,142.67109993978502,1552786200,28.4,100.0,20.0,6.71
382,solnechnyy,ru,59.35600488876179,137.047214647288,1552788270,35.06,73.0,20.0,3.58
383,flin flon,ca,61.121903353790856,-102.7965976162158,1552788271,31.14,77.0,92.0,6.49
384,hazorasp,uz,39.62425012862178,60.487221888174645,1552786200,48.2,87.0,0.0,9.17
385,pangody,ru,67.5891935886132,75.23215256328191,1552788275,-7.97,63.0,36.0,3.13
386,buritizeiro,br,-17.408259847688356,-45.518460977094456,1552788276,69.44,98.0,64.0,6.93
387,cabo san lucas,mx,21.28079864845222,-111.4144075904874,1552788110,69.01,72.0,90.0,8.05
388,baykit,ru,65.73517782090022,94.16096237179285,1552788278,10.53,75.0,0.0,4.7
389,domazlice,cz,49.55217813290096,12.857293531139447,1552788210,46.0,75.0,0.0,9.17
390,vardo,no,89.02084648207399,34.732093841320165,1552788248,42.8,41.0,75.0,11.41
391,victor harbor,au,-36.58259569181135,138.98517537272295,1552788215,90.0,53.0,0.0,10.29
392,yurginskoye,ru,57.1264092362897,67.92564253244231,1552788283,16.61,81.0,0.0,4.36
393,caravelas,br,-18.89940497465666,-28.927402186913586,1552788284,83.16,100.0,0.0,14.65
394,sidney,us,47.99837867565532,-104.22986555649194,1552788125,33.8,69.0,1.0,9.17
395,dakoro,ne,14.840176718318276,7.116079634941088,1552788288,75.24,23.0,20.0,14.65
396,san jose,gt,9.396872373134855,-92.88950766917627,1552788052,82.04,71.0,0.0,3.91
397,veraval,in,17.968133287610172,68.72992729465585,1552788256,48.99,81.0,76.0,19.46
398,kununurra,au,-18.54118399484624,127.8421697358758,1552787520,89.6,62.0,75.0,9.17
399,tuy hoa,vn,12.791830019181633,112.10713581516927,1552788055,75.74,100.0,88.0,7.61
400,krasnaya gora,ru,53.046147983271744,31.170869019829496,1552784400,37.4,93.0,90.0,8.95
401,juneau,us,58.91923308089707,-134.86885638535466,1552784160,46.4,93.0,90.0,18.34
402,qaqortoq,gl,67.09905713852001,-44.54628539439517,1552783800,35.6,47.0,92.0,18.34
403,grand-santi,gf,3.318648765575276,-53.84382388503381,1552788220,77.67,77.0,8.0,4.03
404,muscat,om,24.696762485523337,58.25010663186189,1552783800,71.6,78.0,0.0,4.7
405,qujing,cn,25.782571565030427,103.38462451064636,1552788304,64.08,44.0,0.0,17.67
406,coahuayana,mx,9.599904214726793,-108.16404937672961,1552788305,66.69,60.0,20.0,2.01
407,tabuk,sa,28.68545694147653,36.25879844746035,1552788307,73.17,78.0,32.0,1.57
408,tartagal,ar,-23.02614774736809,-63.06591742485668,1552788200,74.07,85.0,68.0,6.38
409,yershichi,ru,53.51429174600202,32.923557692709515,1552788310,36.54,96.0,92.0,6.04
410,opuwo,na,-20.22768244721334,9.657908082633725,1552788311,60.71,65.0,8.0,2.91
411,golden,ca,52.20024140128089,-116.94312564642124,1552787184,17.01,82.0,8.0,15.99
412,makokou,ga,1.1053230092343114,13.630384580493939,1552788314,69.71,97.0,68.0,2.01
413,gudur,in,17.140949312127347,78.89744745770442,1552786200,73.4,83.0,20.0,1.57
414,nanning,cn,23.266843347887946,108.20713501800265,1552784400,59.0,93.0,90.0,4.47
415,arlit,ne,22.29411966281305,5.349240185756713,1552788302,62.69,60.0,0.0,8.16
416,la roda,es,39.54233560106377,-1.9328453390461109,1552788010,48.2,49.0,0.0,5.82
417,jhawarian,pk,32.491432747130034,72.65224717740296,1552788320,57.96,64.0,0.0,2.68
418,pamanukan,id,-6.012521895375315,107.74635568045107,1552788322,82.13,100.0,68.0,5.37
419,rio gallegos,ar,-53.1678140117382,-68.69813069522577,1552784400,59.0,93.0,92.0,4.7
420,karratha,au,-19.92714616052781,114.57778866741478,1552788241,98.64,32.0,0.0,6.26
421,hof,no,61.418993805529226,13.179948577345044,1552788317,44.01,89.0,8.0,11.99
422,champerico,gt,9.474421588384516,-94.83821642287876,1552783440,69.8,68.0,5.0,17.22
423,pacific grove,us,33.107474734163326,-127.7856882291,1552788066,66.2,52.0,1.0,8.05
424,bayanday,ru,52.883518903672716,105.45521514122645,1552788330,42.89,55.0,64.0,4.36
425,sao miguel do araguaia,br,-12.584015525533431,-51.068640963274156,1552788332,75.96,92.0,0.0,2.68
426,coquimbo,cl,-28.546848769976023,-73.55229461863651,1552784400,59.0,82.0,90.0,4.7
427,mzimba,mw,-12.409989563889908,33.826494558562324,1552788334,60.57,70.0,8.0,5.37
428,kieta,pg,-0.5953807764542347,159.50861084636327,1552788335,83.52,97.0,0.0,3.47
429,chiredzi,zw,-21.6265468087375,32.163181679201195,1552788336,68.58,96.0,92.0,8.5
430,melita,ca,49.19727317731046,-100.80889023238348,1552788289,27.0,92.0,0.0,7.0
431,dakar,sn,15.113919379044715,-18.24428609548667,1552786200,68.0,82.0,0.0,11.41
432,mehran,ir,30.58972973466531,45.40777428088043,1552784400,48.2,100.0,90.0,13.87
433,bonavista,ca,49.77851332822185,-51.82950283379506,1552788087,43.0,85.0,32.0,5.01
434,micheweni,tz,-5.946307076239606,45.136068494431385,1552788344,80.55,100.0,92.0,3.58
435,ucluelet,ca,45.59062922202954,-130.2090478473901,1552787577,53.01,71.0,90.0,2.01
436,ambam,cm,2.2729105398565963,11.138650410655599,1552788346,63.36,40.0,8.0,6.6
437,northam,au,-29.546555698342058,117.2672196040328,1552788320,43.0,81.0,36.0,17.22
438,terra rica,br,-22.46352688070044,-52.76319652144541,1552788351,72.36,93.0,12.0,8.61
439,aborlan,ph,9.002390795651422,119.508799909789,1552784400,84.2,70.0,20.0,6.93
440,nortelandia,br,-12.585884006306644,-57.16295478808597,1552788354,77.09,86.0,8.0,2.57
441,ialibu,pg,-7.056592664804896,143.93078360397058,1552788355,66.29,82.0,80.0,1.34
442,sao joao da barra,br,-36.54777473158849,-21.74442248924467,1552788357,76.59,100.0,92.0,8.95
443,tromso,no,70.1031272322727,18.994337032773412,1552787871,26.6,68.0,40.0,20.8
444,itaituba,br,-5.134335943361408,-54.1825393555545,1552788359,76.01,95.0,0.0,2.13
445,grand gaube,mu,-14.390566595862596,62.88289760322138,1552784400,77.0,83.0,75.0,6.93
446,anadyr,ru,62.45669341567886,173.26432568688745,1552788190,-5.01,76.0,90.0,11.18
447,concordia,ar,-31.138698552170425,-59.30832164070417,1552787813,78.01,70.0,48.0,25.01
448,albacete,es,38.72639979782835,-1.902621293984765,1552788010,48.2,49.0,0.0,5.82
449,amapa,br,1.7489529134900297,-48.68138021345101,1552788336,78.8,78.0,20.0,5.82
450,mount darwin,zw,-16.566653977283078,31.917189631714876,1552788369,65.79,98.0,92.0,3.36
451,prado,br,-17.574933612438315,-37.14854578379939,1552788131,82.89,95.0,20.0,14.76
452,sueyoshi,jp,31.6216754142654,131.04152196432622,1552788188,62.6,41.0,20.0,17.22
453,kaeo,nz,-27.956944279184174,173.0305230285582,1552788184,72.0,76.0,12.0,5.99
454,elizabeth city,us,33.513292022558616,-71.14110521557673,1552788333,48.99,81.0,1.0,6.93
455,maunabo,us,16.570567695790402,-65.30563368899965,1552788346,73.0,38.0,8.0,9.28
456,seymchan,ru,64.38690307514022,152.02042037389305,1552788378,-5.0,65.0,32.0,1.68
457,hobyo,so,0.8616845438420313,51.24734579208979,1552788380,77.54,88.0,32.0,10.63
458,thyolo,mw,-16.214254431833805,34.99404640977974,1552788381,67.95,94.0,64.0,2.35
459,egvekinot,ru,65.69841918321086,-176.44930208321347,1552788383,0.86,68.0,64.0,4.92
460,kichmengskiy gorodok,ru,60.10072699579422,45.64312338801169,1552788384,26.46,88.0,80.0,6.71
461,tautira,pf,-17.122910603597887,-148.40687670016388,1552788185,82.4,83.0,75.0,9.17
462,lotofaga,ws,-15.057993819318385,-172.0497902541038,1552788185,86.0,74.0,75.0,3.36
463,beringovskiy,ru,56.57014654000807,177.71241024274394,1552788388,4.23,95.0,32.0,15.99
464,manokwari,id,-2.0815781693660256,134.76272101076296,1552788389,83.48,92.0,20.0,3.58
465,nunoa,pe,-14.597601835489867,-70.62965057530026,1552788390,31.73,96.0,56.0,2.91
466,fort nelson,ca,58.953305927394155,-124.51369026681994,1552784400,44.6,36.0,75.0,3.36
467,maniwaki,ca,47.382187065780755,-76.42912665739263,1552788393,21.78,51.0,44.0,8.72
468,cermik,tr,38.46021032276985,39.06808949140935,1552783800,39.2,93.0,75.0,4.7
469,maloy,no,62.90844994928915,3.0773503958162682,1552788395,83.66,74.0,76.0,3.02
470,wajima,jp,39.07614117146309,135.25706927736638,1552784400,42.8,48.0,75.0,3.36
471,povenets,ru,62.92901015991461,35.2239479245699,1552788398,26.33,88.0,76.0,10.63
472,isangel,vu,-19.952802410737068,168.38125912119455,1552784400,87.8,66.0,75.0,13.87
473,nishihara,jp,21.307165952138806,133.05998285299128,1552788342,62.01,52.0,20.0,3.36
474,tessalit,ml,22.256156016598922,2.842308106888794,1552788401,58.91,31.0,0.0,2.68
475,novosheshminsk,ru,55.02632849646815,51.37828759683146,1552788403,24.71,85.0,92.0,10.18
476,winslow,us,36.37761685232317,-110.7775882748693,1552788396,44.6,93.0,40.0,19.46
477,bama,ng,11.971356078289846,13.66987730979807,1552788405,58.86,99.0,92.0,3.58
478,aranos,na,-24.394666560026092,20.344182296198564,1552788406,74.48,33.0,56.0,9.73
479,imeni poliny osipenko,ru,52.635852518637705,135.90688389616506,1552788409,34.29,66.0,44.0,3.91
480,bratsk,ru,55.85347929730571,102.40622300577064,1552787586,37.4,64.0,40.0,8.95
481,moree,au,-29.06351019588039,147.31170024176822,1552788155,68.0,88.0,90.0,9.17
482,port hardy,ca,49.023585816361454,-130.07984402751592,1552784400,51.8,66.0,75.0,18.34
483,hailey,us,43.79275192164837,-113.32280264244957,1552788066,35.6,55.0,5.0,0.89
484,chelno-vershiny,ru,54.36950677673589,51.12091696095661,1552788416,24.93,84.0,32.0,9.95
485,klyuchevskiy,ru,52.92207080567962,119.89028449653944,1552788417,38.84,51.0,0.0,6.15
486,chifeng,cn,44.67820044317765,116.99177207761413,1552788419,51.3,49.0,0.0,8.84
487,finschhafen,pg,-5.116117682433226,148.36608935715626,1552788421,76.41,99.0,92.0,2.68
488,buraydah,sa,28.77063546827439,42.86013936685487,1552784400,57.2,50.0,40.0,20.8
489,tateyama,jp,22.058119752822023,144.00323250251984,1552788138,45.0,52.0,75.0,8.05
490,dudinka,ru,70.56929142537491,85.8769021900517,1552788424,-12.02,38.0,36.0,3.24
491,kenai,us,63.48737109577587,-156.36791020446637,1552787749,44.6,91.0,90.0,9.17
492,svetlaya,ru,45.70676368708888,138.26888717043505,1552788426,34.74,78.0,0.0,7.16
493,santa marta de tormes,es,40.97308142398325,-5.458704108322905,1552786200,42.8,70.0,0.0,6.93
494,lavrentiya,ru,77.51076653818765,-170.7183931998116,1552788430,17.06,97.0,24.0,22.82
495,lerwick,gb,59.36654520952917,0.2609625599217225,1552785600,39.2,93.0,80.0,13.87
496,morgan city,us,26.335540041516968,-92.63963245568792,1552788123,55.4,71.0,90.0,1.01
497,oranjemund,na,-29.186030491422123,15.435752062745252,1552788434,64.53,95.0,92.0,3.36
498,tazovskiy,ru,71.37609077310475,75.27363785841109,1552788435,-11.88,38.0,8.0,3.13
499,antequera,py,-24.457379250924358,-57.46597987194407,1552788436,76.23,92.0,68.0,7.72
500,gonda,in,27.141254931868744,81.98550417012245,1552788437,69.84,54.0,36.0,6.6
501,ancud,cl,-41.04912020275283,-104.91759219995436,1552784400,53.6,87.0,64.0,2.24
502,paraul,ru,42.80637789120789,47.2897577743064,1552786200,46.4,75.0,75.0,6.71
503,nantucket,us,39.7420956499015,-69.37248484758128,1552788172,39.2,44.0,1.0,16.11
504,russell,nz,-26.939624615223533,179.5600426278828,1552784400,59.0,77.0,75.0,13.87
505,rio grande,br,-36.303940019164955,-46.8417118348311,1552788446,74.07,92.0,92.0,19.57
506,mizdah,ly,30.708774585513623,12.474323796178224,1552788447,39.33,83.0,0.0,2.91
507,berlevag,no,89.02428734884545,31.44573348518864,1552788448,24.26,100.0,0.0,15.77
508,hoa binh,vn,20.556032697881466,105.56514100857731,1552786200,62.6,100.0,90.0,4.7
509,fasa,ir,28.907502836302232,53.57269778182957,1552784400,51.8,81.0,90.0,2.13
510,okha,ru,55.72265946407886,146.39051889852718,1552788452,28.89,100.0,32.0,4.59
511,wilmington,us,31.762969255371203,-76.30864519419445,1552787858,42.01,44.0,0.0,6.93
512,san juan de colon,ve,8.015370176967991,-71.84581666052874,1552784400,84.2,62.0,75.0,2.24
513,ouadda,cf,7.444054006527053,23.422485479487108,1552788455,70.88,26.0,8.0,10.74
514,solano,co,0.4940619075900372,-75.483680104524,1552788456,69.12,93.0,68.0,2.57
515,kawalu,id,-11.41130558109168,107.76821873852516,1552788458,77.22,79.0,56.0,2.46
516,jiwani,pk,25.091277218574014,62.01267659285828,1552788459,62.55,94.0,24.0,3.91
517,sampit,id,-2.2292460739377877,113.4911943005762,1552788460,85.19,87.0,24.0,7.27
518,tazmalt,dz,35.89463370757653,4.276730777614404,1552788413,61.0,67.0,0.0,13.87
519,brockville,ca,44.607471572868064,-75.76527411153526,1552788269,30.0,79.0,90.0,6.93
520,kirakira,sb,-11.893895867738351,161.9848773477616,1552788463,84.29,100.0,8.0,13.42
521,batemans bay,au,-36.645616187973204,151.59406336704455,1552788379,73.0,78.0,80.0,7.0
522,zemio,cf,5.717134063751317,24.95958594636815,1552788467,67.68,58.0,8.0,3.47
523,san andres,co,12.494010889159995,-82.21334714158047,1552788469,81.59,97.0,0.0,13.76
524,nicoya,cr,5.8973290267588405,-87.61481316895004,1552788002,82.4,58.0,0.0,26.4
525,altamira,br,-4.349324063081681,-52.43765960086885,1552788312,78.84,82.0,24.0,5.14
526,alice springs,au,-23.025760949602372,135.0786202734937,1552786200,89.6,11.0,24.0,6.93
527,hailar,cn,47.46350818712679,119.95511101738634,1552788473,44.64,31.0,0.0,13.53
528,obuasi,gh,6.283983195871116,-1.5657415374246568,1552788474,70.74,95.0,20.0,2.68
529,tecoanapa,mx,11.069302594776078,-100.63402133812129,1552783200,80.6,83.0,75.0,8.05
530,cowra,au,-33.53351758921033,148.56632825453946,1552788100,66.99,70.0,80.0,1.99
531,ambulu,id,-13.523007963261822,112.68698919719652,1552788478,80.46,100.0,68.0,5.93
532,praia da vitoria,pt,42.01841545839065,-25.521631913101945,1552788078,57.99,93.0,0.0,5.37
533,santo antonio do ica,br,-2.9694179677526904,-68.3145466880307,1552788480,76.46,95.0,64.0,3.13
534,nha trang,vn,11.847287833685089,113.20281637300907,1552786200,86.0,66.0,20.0,10.29
535,bourail,nc,-27.350156439127325,161.76602468103488,1552788483,80.78,80.0,76.0,4.25
536,lluta,pe,-15.61190547182035,-72.03273389846967,1552784400,59.0,72.0,40.0,2.57
537,xichang,cn,29.391575599910997,100.04871483443544,1552788483,66.0,28.0,0.0,2.01
538,komsomolskiy,ru,65.90802910900972,172.8052906575567,1552788485,14.18,83.0,92.0,12.53
539,lebyazhye,ru,54.5711887635913,66.80966701812417,1552788335,34.0,80.0,90.0,6.71
540,carutapera,br,1.683159338093887,-43.93780204025092,1552788490,78.48,93.0,80.0,5.26
541,paka,my,5.320789979709971,104.32834252875784,1552786200,37.4,86.0,0.0,5.82
542,papara,pf,-18.32768443861282,-149.59791125713738,1552788000,75.2,94.0,75.0,4.7
543,ghaziabad,in,28.686312437724308,77.36681156233107,1552786200,59.0,87.0,75.0,4.92
544,hasanabad,az,39.140321921808074,49.116919563237104,1552788186,50.0,75.0,0.0,8.05
545,marrakesh,ma,32.277989512686844,-7.3468315162836015,1552786200,68.0,34.0,40.0,5.82
546,manthani,in,18.422471818198574,79.74204106113991,1552788498,80.51,53.0,0.0,4.59
547,kulhudhuffushi,mv,7.589109134290581,65.7250793169845,1552788500,83.84,100.0,8.0,8.95
548,quang ngai,vn,15.860860406174734,109.75490709058256,1552788501,78.75,77.0,12.0,3.02
549,vangaindrano,mg,-25.260249959072286,51.40422313719707,1552788392,70.29,96.0,68.0,2.68
550,saint-augustin,ca,53.784849584171134,-59.66383652829003,1552788368,53.6,87.0,75.0,6.93
551,agadez,ne,16.994729687008007,9.720629650930393,1552788449,76.28,14.0,24.0,13.65
552,bilibino,ru,71.00582659195591,166.55839491687897,1552788505,-7.07,57.0,0.0,3.13
553,tashara,ru,55.54143556510229,83.46907752509281,1552788507,21.83,88.0,68.0,8.95
554,mwene-ditu,cd,-7.240769094056687,23.660349005461626,1552788508,69.03,98.0,92.0,3.36
555,kushima,jp,29.708828877436535,132.06208690597856,1552788188,62.6,41.0,20.0,17.22
556,te anau,nz,-40.29300964668681,160.76496781247332,1552788510,70.83,62.0,12.0,3.13
557,walvis bay,na,-25.25681161803759,9.595469146868908,1552788127,61.0,82.0,0.0,6.93
558,hami,cn,36.55596715502767,90.74495254566182,1552788513,51.08,43.0,0.0,7.94
559,kurilsk,ru,44.769634960798044,147.38234149957358,1552788514,30.51,95.0,88.0,3.36
560,poso,id,-1.4790875628437306,121.81936090088287,1552788515,83.25,100.0,12.0,5.82
561,agadir,ma,30.70468622246449,-10.501365607419984,1552786200,57.2,82.0,0.0,5.82
562,inirida,co,4.328143037995261,-67.32815121843689,1552788517,75.06,92.0,20.0,2.13
563,sao filipe,cv,8.727667247471473,-25.28701820698524,1552788473,71.24,94.0,0.0,12.19
564,bandar-e anzali,ir,37.3116193317248,49.260777595667626,1552784400,51.8,81.0,0.0,2.57
565,marsh harbour,bs,29.657471065582385,-72.57820969112919,1552788320,73.76,100.0,32.0,6.04
566,rosario do sul,br,-30.46917475223691,-55.16827149086322,1552788522,69.21,96.0,92.0,8.28
567,oromocto,ca,45.93787271464962,-66.1034604078839,1552788454,30.99,46.0,20.0,23.04
568,mago,ru,52.83225986714061,138.60410926360066,1552788524,32.99,57.0,48.0,4.25
569,borogontsy,ru,63.767196901873206,130.80117056206353,1552788526,11.25,44.0,0.0,3.8
570,honningsvag,no,76.35895161362755,26.42259096868809,1552788527,30.38,100.0,56.0,17.67
